{
  "data": [
    {
      "title": "BLR (Bengaluru International Airport)",
      "icao": "VOBL",
      "iata": "BLR",
      "name": "Bengaluru International Airport",
      "city": "Bangalore",
      "state": "Karnataka",
      "country": "IN",
      "elevation": 3000,
      "lat": 13.1978998184,
      "lon": 77.7062988281,
      "tz": "Asia/Kolkata"
    },
    {
      "title": "BOM (Chhatrapati Shivaji International Airport)",
      "icao": "VABB",
      "iata": "BOM",
      "name": "Chhatrapati Shivaji International Airport",
      "city": "Mumbai",
      "state": "Maharashtra",
      "country": "IN",
      "elevation": 37,
      "lat": 19.0886993408,
      "lon": 72.8678970337,
      "tz": "Asia/Kolkata"
    },
    {
      "title": "HYD (Rajiv Gandhi International Airport)",
      "icao": "VOHS",
      "iata": "HYD",
      "name": "Rajiv Gandhi International Airport Shamshabad",
      "city": "Hyderabad",
      "state": "Telangana",
      "country": "IN",
      "elevation": 2024,
      "lat": 17.2313175201,
      "lon": 78.4298553467,
      "tz": "Asia/Kolkata"
    },
    {
      "title": "DEL (Indira Gandhi International Airport)",
      "icao": "VIDP",
      "iata": "DEL",
      "name": "Indira Gandhi International Airport",
      "city": "New Delhi",
      "state": "NCT",
      "country": "IN",
      "elevation": 777,
      "lat": 28.5664997101,
      "lon": 77.1031036377,
      "tz": "Asia/Kolkata"
    },
    {
      "title": "MAA (Chennai International Airport)",
      "icao": "VOMM",
      "iata": "MAA",
      "name": "Chennai International Airport",
      "city": "Chennai",
      "state": "Tamil-Nadu",
      "country": "IN",
      "elevation": 52,
      "lat": 12.9900054932,
      "lon": 80.1692962646,
      "tz": "Asia/Kolkata"
    },
    {
      "title": "CCU (Netaji Subhash Chandra Bose International Airport)",
      "icao": "VECC",
      "iata": "CCU",
      "name": "Netaji Subhash Chandra Bose International Airport",
      "city": "Kolkata",
      "state": "West-Bengal",
      "country": "IN",
      "elevation": 16,
      "lat": 22.6546993256,
      "lon": 88.4467010498,
      "tz": "Asia/Kolkata"
    },
    {
      "title": "IXC (Chandigarh Airport)",
      "icao": "VICG",
      "iata": "IXC",
      "name": "Chandigarh Airport",
      "city": "Chandigarh",
      "state": "Chandigarh",
      "country": "IN",
      "elevation": 1012,
      "lat": 30.673500061,
      "lon": 76.7884979248,
      "tz": "Asia/Kolkata"
    },
    {
      "title": "IXE (Mangalore International Airport)",
      "icao": "VOML",
      "iata": "IXE",
      "name": "Mangalore International Airport",
      "city": "Mangalore",
      "state": "Karnataka",
      "country": "IN",
      "elevation": 337,
      "lat": 12.9612998962,
      "lon": 74.8900985718,
      "tz": "Asia/Kolkata"
    },
    {
      "title": "DMK (Don Mueang International Airport)",
      "icao": "VTBD",
      "iata": "DMK",
      "name": "Don Mueang International Airport",
      "city": "Bangkok",
      "state": "Bangkok",
      "country": "TH",
      "elevation": 9,
      "lat": 13.9125995636,
      "lon": 100.6070022583,
      "tz": "Asia/Bangkok"
    },
    {
      "title": "SIN (Singapore Changi International Airport)",
      "icao": "WSSS",
      "iata": "SIN",
      "name": "Singapore Changi International Airport",
      "city": "Singapore",
      "state": "North-East",
      "country": "SG",
      "elevation": 22,
      "lat": 1.3501900434,
      "lon": 103.9940032959,
      "tz": "Asia/Singapore"
    },
    {
      "title": "KUL (Kuala Lumpur International Airport)",
      "icao": "WMKK",
      "iata": "KUL",
      "name": "Kuala Lumpur International Airport",
      "city": "Kuala Lumpur",
      "state": "",
      "country": "MY",
      "elevation": 69,
      "lat": 2.745579958,
      "lon": 101.7099990845,
      "tz": "Asia/Kuala_Lumpur"
    },
    {
      "title": "SYD (Sydney Kingsford Smith International Airport)",
      "icao": "YSSY",
      "iata": "SYD",
      "name": "Sydney Kingsford Smith International Airport",
      "city": "Sydney",
      "state": "New-South-Wales",
      "country": "AU",
      "elevation": 21,
      "lat": -33.9460983276,
      "lon": 151.1770019531,
      "tz": "Australia/Sydney"
    },
    {
      "title": "AUH (Abu Dhabi International Airport)",
      "icao": "OMAA",
      "iata": "AUH",
      "name": "Abu Dhabi International Airport",
      "city": "Abu Dhabi",
      "state": "Abu-Dhabi",
      "country": "AE",
      "elevation": 88,
      "lat": 24.4330005646,
      "lon": 54.6511001587,
      "tz": "Asia/Dubai"
    },
    {
      "title": "DXB (Dubai International Airport)",
      "icao": "OMDB",
      "iata": "DXB",
      "name": "Dubai International Airport",
      "city": "Dubai",
      "state": "Dubai",
      "country": "AE",
      "elevation": 34,
      "lat": 25.2527999878,
      "lon": 55.3643989563,
      "tz": "Asia/Dubai"
    },
    {
      "title": "DIA (Doha International Airport)",
      "icao": "OTBD",
      "iata": "DIA",
      "name": "Doha International Airport",
      "city": "Doha",
      "state": "Baladiyat-ad-Daw\u1e29ah",
      "country": "QA",
      "elevation": 35,
      "lat": 25.261100769,
      "lon": 51.5651016235,
      "tz": "Asia/Qatar"
    },
    {
      "title": "IKA (Imam Khomeini International Airport)",
      "icao": "OIIE",
      "iata": "IKA",
      "name": "Imam Khomeini International Airport",
      "city": "Tehran",
      "state": "Tehran",
      "country": "IR",
      "elevation": 3305,
      "lat": 35.4160995483,
      "lon": 51.1521987915,
      "tz": "Asia/Tehran"
    },
    {
      "title": "IST (Ataturk International Airport)",
      "icao": "LTBA",
      "iata": "IST",
      "name": "Ataturk International Airport",
      "city": "Istanbul",
      "state": "Istanbul",
      "country": "TR",
      "elevation": 163,
      "lat": 40.9768981934,
      "lon": 28.8145999908,
      "tz": "Europe/Istanbul"
    },
    {
      "title": "RUH (King Khaled International Airport)",
      "icao": "OERK",
      "iata": "RUH",
      "name": "King Khaled International Airport",
      "city": "Riyadh",
      "state": "",
      "country": "SA",
      "elevation": 2049,
      "lat": 24.9575996399,
      "lon": 46.6987991333,
      "tz": "Asia/Riyadh"
    },
    {
      "title": "CAI (Cairo International Airport)",
      "icao": "HECA",
      "iata": "CAI",
      "name": "Cairo International Airport",
      "city": "Cairo",
      "state": "Cairo",
      "country": "EG",
      "elevation": 382,
      "lat": 30.1219005585,
      "lon": 31.4055995941,
      "tz": "Africa/Cairo"
    },
    {
      "title": "ISB (Benazir Bhutto International Airport)",
      "icao": "OPRN",
      "iata": "ISB",
      "name": "Benazir Bhutto International Airport",
      "city": "Islamabad",
      "state": "Punjab",
      "country": "PK",
      "elevation": 1668,
      "lat": 33.6166992188,
      "lon": 73.0991973877,
      "tz": "Asia/Karachi"
    },
    {
      "title": "CMB (Bandaranaike International Colombo Airport)",
      "icao": "VCBI",
      "iata": "CMB",
      "name": "Bandaranaike International Colombo Airport",
      "city": "Colombo",
      "state": "Western",
      "country": "LK",
      "elevation": 30,
      "lat": 7.1807599068,
      "lon": 79.8841018677,
      "tz": "Asia/Colombo"
    },
    {
      "title": "DAC (Hazrat Shahjalal International Airport)",
      "icao": "VGHS",
      "iata": "DAC",
      "name": "Dhaka / Hazrat Shahjalal International Airport",
      "city": "Dhaka",
      "state": "Dhaka",
      "country": "BD",
      "elevation": 30,
      "lat": 23.843347,
      "lon": 90.397783,
      "tz": "Asia/Dhaka"
    },
    {
      "title": "ATH (Eleftherios Venizelos International Airport)",
      "icao": "LGAV",
      "iata": "ATH",
      "name": "Eleftherios Venizelos International Airport",
      "city": "Athens",
      "state": "Attica",
      "country": "GR",
      "elevation": 308,
      "lat": 37.9364013672,
      "lon": 23.9444999695,
      "tz": "Europe/Athens"
    },
    {
      "title": "SVO (Sheremetyevo International Airport)",
      "icao": "UUEE",
      "iata": "SVO",
      "name": "Sheremetyevo International Airport",
      "city": "Moscow",
      "state": "Moscow-Oblast",
      "country": "RU",
      "elevation": 622,
      "lat": 55.9725990295,
      "lon": 37.4146003723,
      "tz": "Europe/Moscow"
    },
    {
      "title": "FCO (Leonardo Da Vinci (Fiumicino) International Airport)",
      "icao": "LIRF",
      "iata": "FCO",
      "name": "Leonardo Da Vinci (Fiumicino) International Airport",
      "city": "Rome",
      "state": "Latium",
      "country": "IT",
      "elevation": 15,
      "lat": 41.8045005798,
      "lon": 12.2508001328,
      "tz": "Europe/Rome"
    },
    {
      "title": "TXL (Berlin-Tegel International Airport)",
      "icao": "EDDT",
      "iata": "TXL",
      "name": "Berlin-Tegel International Airport",
      "city": "Berlin",
      "state": "Berlin",
      "country": "DE",
      "elevation": 122,
      "lat": 52.5597000122,
      "lon": 13.2876996994,
      "tz": "Europe/Berlin"
    },
    {
      "title": "AMS (Amsterdam Airport Schiphol)",
      "icao": "EHAM",
      "iata": "AMS",
      "name": "Amsterdam Airport Schiphol",
      "city": "Amsterdam",
      "state": "North-Holland",
      "country": "NL",
      "elevation": -11,
      "lat": 52.3086013794,
      "lon": 4.7638897896,
      "tz": "Europe/Amsterdam"
    },
    {
      "title": "CPT (Cape Town International Airport)",
      "icao": "FACT",
      "iata": "CPT",
      "name": "Cape Town International Airport",
      "city": "Cape Town",
      "state": "Western-Cape",
      "country": "ZA",
      "elevation": 151,
      "lat": -33.9648017883,
      "lon": 18.6016998291,
      "tz": "Africa/Johannesburg"
    },
    {
      "title": "CDG (Charles de Gaulle International Airport)",
      "icao": "LFPG",
      "iata": "CDG",
      "name": "Charles de Gaulle International Airport",
      "city": "Paris",
      "state": "Ile-de-France",
      "country": "FR",
      "elevation": 392,
      "lat": 49.0127983093,
      "lon": 2.5499999523,
      "tz": "Europe/Paris"
    },
    {
      "title": "LHR (London Heathrow Airport)",
      "icao": "EGLL",
      "iata": "LHR",
      "name": "London Heathrow Airport",
      "city": "London",
      "state": "England",
      "country": "GB",
      "elevation": 83,
      "lat": 51.4706001282,
      "lon": -0.4619410038,
      "tz": "Europe/London"
    },
    {
      "title": "MAD (Madrid Barajas International Airport)",
      "icao": "LEMD",
      "iata": "MAD",
      "name": "Madrid Barajas International Airport",
      "city": "Madrid",
      "state": "Madrid",
      "country": "ES",
      "elevation": 2001,
      "lat": 40.4936,
      "lon": -3.56676,
      "tz": "Europe/Madrid"
    },
    {
      "title": "LIS (Lisbon Portela Airport)",
      "icao": "LPPT",
      "iata": "LIS",
      "name": "Lisbon Portela Airport",
      "city": "Lisbon",
      "state": "Lisbon",
      "country": "PT",
      "elevation": 374,
      "lat": 38.7812995911,
      "lon": -9.1359195709,
      "tz": "Europe/Lisbon"
    },
    {
      "title": "JFK (John F Kennedy International Airport)",
      "icao": "KJFK",
      "iata": "JFK",
      "name": "John F Kennedy International Airport",
      "city": "New York",
      "state": "New-York",
      "country": "US",
      "elevation": 13,
      "lat": 40.63980103,
      "lon": -73.77890015,
      "tz": "America/New_York"
    },
    {
      "title": "YYZ (Lester B. Pearson International Airport)",
      "icao": "CYYZ",
      "iata": "YYZ",
      "name": "Lester B. Pearson International Airport",
      "city": "Toronto",
      "state": "Ontario",
      "country": "CA",
      "elevation": 569,
      "lat": 43.6772003174,
      "lon": -79.6305999756,
      "tz": "America/Toronto"
    },
    {
      "title": "EDI (Edinburgh Airport)",
      "icao": "EGPH",
      "iata": "EDI",
      "name": "Edinburgh Airport",
      "city": "Edinburgh",
      "state": "Scotland",
      "country": "GB",
      "elevation": 135,
      "lat": 55.9500007629,
      "lon": -3.3724999428,
      "tz": "Europe/London"
    },
    {
      "title": "MEX (Licenciado Benito Juarez International Airport)",
      "icao": "MMMX",
      "iata": "MEX",
      "name": "Licenciado Benito Juarez International Airport",
      "city": "Mexico City",
      "state": "Mexico-City",
      "country": "MX",
      "elevation": 7316,
      "lat": 19.4363002777,
      "lon": -99.0720977783,
      "tz": "America/Mexico_City"
    },
    {
      "title": "BSB (Presidente Juscelino Kubistschek International Airport)",
      "icao": "SBBR",
      "iata": "BSB",
      "name": "Presidente Juscelino Kubistschek International Airport",
      "city": "Brasilia",
      "state": "Federal-District",
      "country": "BR",
      "elevation": 3497,
      "lat": -15.8691673279,
      "lon": -47.9208335876,
      "tz": "America/Sao_Paulo"
    },
    {
      "title": "WLG (Wellington International Airport)",
      "icao": "NZWN",
      "iata": "WLG",
      "name": "Wellington International Airport",
      "city": "Wellington",
      "state": "Wellington",
      "country": "NZ",
      "elevation": 41,
      "lat": -41.3272018433,
      "lon": 174.804992676,
      "tz": "Pacific/Auckland"
    }
  ]
}
